City_ID,City,Lat,Lng,Max Temp,Humidity,Cloudiness,Wind Speed,Country,Date
0,isafjordur,66.0755,-23.124,1.77,86,91,3.29,IS,2023-11-14 00:10:57
1,abepura,-2.6333,140.5833,28.45,79,20,1.54,ID,2023-11-14 00:10:57
2,adamstown,-25.066,-130.1015,22.83,84,94,7.36,PN,2023-11-14 00:10:57
3,georgetown,5.4112,100.3354,26.68,89,20,0.0,MY,2023-11-14 00:08:52
4,yellowknife,62.456,-114.3525,-6.71,86,100,2.06,CA,2023-11-14 00:10:57
5,aasiaat,68.7098,-52.8699,-9.93,84,100,1.5,GL,2023-11-14 00:10:57
6,vicam,27.6333,-110.2833,27.51,30,0,3.71,MX,2023-11-14 00:10:58
7,luderitz,-26.6481,15.1594,15.4,81,0,1.99,NA,2023-11-14 00:07:30
8,minas de marcona,-15.2119,-75.1103,14.56,87,74,6.15,PE,2023-11-14 00:10:58
9,longyearbyen,78.2186,15.6401,-10.09,79,100,3.6,SJ,2023-11-14 00:06:09
10,albany,42.6001,-73.9662,3.1,74,100,0.67,US,2023-11-14 00:10:58
11,rongelap,11.1635,166.8941,28.08,83,100,7.64,MH,2023-11-14 00:10:58
12,bikenibeu village,1.3673,173.1241,28.18,79,95,8.42,KI,2023-11-14 00:10:58
13,bloomington,44.8408,-93.2983,9.62,50,40,3.6,US,2023-11-14 00:09:03
14,grytviken,-54.2811,-36.5092,2.38,98,100,3.57,GS,2023-11-14 00:10:59
15,happy valley-goose bay,53.3168,-60.3315,-1.83,69,75,6.69,CA,2023-11-14 00:06:15
16,saipan,15.1355,145.701,31.39,70,20,7.72,MP,2023-11-14 00:06:27
17,waitangi,-43.9535,-176.5597,13.2,84,4,9.38,NZ,2023-11-14 00:10:59
18,akureyri,65.6835,-18.0878,0.96,80,75,1.03,IS,2023-11-14 00:10:59
19,jamestown,42.097,-79.2353,8.77,75,0,4.12,US,2023-11-14 00:10:56
20,genoa,44.4129,8.9573,16.56,88,40,1.03,IT,2023-11-14 00:11:00
21,lorengau,-2.0226,147.2712,27.83,80,84,3.24,PG,2023-11-14 00:11:00
22,hithadhoo,-0.6,73.0833,26.99,81,88,3.63,MV,2023-11-14 00:11:00
23,birao,10.2849,22.7882,24.58,69,35,1.82,CF,2023-11-14 00:11:00
24,weno,7.4515,151.8468,28.4,75,99,3.25,FM,2023-11-14 00:11:00
25,olonkinbyen,70.9221,-8.7187,-1.79,70,92,2.87,SJ,2023-11-14 00:11:00
26,avarua,-21.2078,-159.775,24.03,64,75,5.66,CK,2023-11-14 00:08:52
27,vorgashor,67.5833,63.95,-15.35,91,97,3.49,RU,2023-11-14 00:11:01
28,bredasdorp,-34.5322,20.0403,14.94,81,4,6.58,ZA,2023-11-14 00:11:01
29,colonia,50.9333,6.95,12.68,75,40,6.17,DE,2023-11-14 00:06:43
30,nova sintra,14.8667,-24.7167,23.75,72,80,4.74,CV,2023-11-14 00:11:02
31,port-aux-francais,-49.35,70.2167,6.86,97,100,16.64,TF,2023-11-14 00:11:02
32,gisborne,-38.6533,178.0042,20.99,36,90,5.76,NZ,2023-11-14 00:11:03
33,kodiak,57.79,-152.4072,6.73,49,40,7.2,US,2023-11-14 00:11:03
34,darasun,51.6667,114.0,-16.03,97,52,1.27,RU,2023-11-14 00:11:03
35,cafayate,-26.073,-65.9761,18.37,73,74,2.56,AR,2023-11-14 00:11:04
36,karratha,-20.7377,116.8463,24.41,50,30,6.04,AU,2023-11-14 00:11:04
37,trairi,-3.2778,-39.2689,26.55,79,25,4.88,BR,2023-11-14 00:07:26
38,vila franca do campo,37.7167,-25.4333,18.23,99,90,1.7,PT,2023-11-14 00:11:04
39,pariaman,-0.619,100.12,25.03,90,98,1.89,ID,2023-11-14 00:11:05
40,mugia,43.1041,-9.2179,18.84,97,100,11.84,ES,2023-11-14 00:11:05
41,badger,64.8,-147.5333,-3.34,93,100,0.89,US,2023-11-14 00:11:05
42,vilyuchinsk,52.9306,158.4028,-2.26,74,100,3.16,RU,2023-11-14 00:11:06
43,chittaranjan,23.8667,86.8667,18.44,51,58,2.47,IN,2023-11-14 00:06:47
44,iskateley,67.6803,53.1512,-11.1,88,100,4.02,RU,2023-11-14 00:11:06
45,hermanus,-34.4187,19.2345,15.76,78,5,9.38,ZA,2023-11-14 00:11:07
46,burutu,5.3509,5.5076,25.74,87,100,1.72,NG,2023-11-14 00:11:07
47,alice springs,-23.7,133.8833,30.75,16,20,6.17,AU,2023-11-14 00:07:41
48,tazovsky,67.4667,78.7,-19.15,96,8,3.59,RU,2023-11-14 00:11:08
49,alofi,-19.0595,-169.9187,25.3,87,100,8.58,NU,2023-11-14 00:11:08
50,timbuktu,16.7735,-3.0074,26.59,10,0,4.81,ML,2023-11-14 00:11:09
51,port mathurin,-19.6833,63.4167,24.05,94,20,0.0,MU,2023-11-14 00:11:09
52,severo-yeniseyskiy,60.3725,93.0408,-9.92,94,96,3.56,RU,2023-11-14 00:11:09
53,papatowai,-46.5619,169.4708,17.28,46,19,4.72,NZ,2023-11-14 00:06:14
54,playa del ingles,27.7567,-15.5787,24.86,68,9,3.72,ES,2023-11-14 00:11:10
55,port elizabeth,-33.918,25.5701,17.16,77,100,5.14,ZA,2023-11-14 00:11:10
56,west island,-12.1568,96.8225,25.99,83,100,3.6,CC,2023-11-14 00:11:11
57,anadyr,64.75,177.4833,-11.72,72,33,13.86,RU,2023-11-14 00:11:11
58,margaret river,-33.95,115.0667,16.19,81,98,5.31,AU,2023-11-14 00:11:11
59,ribeira brava,32.65,-17.0667,21.35,78,45,0.83,PT,2023-11-14 00:11:11
60,tommot,58.9564,126.2925,-18.86,98,97,1.03,RU,2023-11-14 00:07:39
61,abalak,58.1286,68.5944,-0.92,95,100,4.43,RU,2023-11-14 00:11:12
62,kone,-21.0595,164.8658,27.88,40,11,3.45,NC,2023-11-14 00:11:13
63,college,64.8569,-147.8028,-3.29,92,100,1.34,US,2023-11-14 00:11:13
64,puerto ayora,-0.7393,-90.3518,23.64,96,80,2.68,EC,2023-11-14 00:11:10
65,lompoc,34.6391,-120.4579,20.08,66,0,4.47,US,2023-11-14 00:06:41
66,wailua homesteads,22.0669,-159.378,29.24,81,100,6.17,US,2023-11-14 00:11:13
67,flying fish cove,-10.4217,105.6791,25.82,78,100,4.12,CX,2023-11-14 00:11:14
68,ribeira grande,38.5167,-28.7,15.99,91,100,1.34,PT,2023-11-14 00:11:14
69,al kharijah,25.4514,30.5464,23.28,49,0,5.28,EG,2023-11-14 00:11:14
70,mossel bay,-34.1831,22.146,15.74,85,42,8.04,ZA,2023-11-14 00:10:56
71,iqaluit,63.7506,-68.5145,-17.95,64,14,2.68,CA,2023-11-14 00:11:15
72,mount gambier,-37.8333,140.7667,14.17,67,100,1.07,AU,2023-11-14 00:11:15
73,prado,-17.3411,-39.2208,24.75,81,55,6.61,BR,2023-11-14 00:11:16
74,blackmans bay,-43.0167,147.3167,15.07,50,62,0.89,AU,2023-11-14 00:11:17
75,monzon,41.9108,0.1941,15.68,79,51,0.59,ES,2023-11-14 00:11:17
76,arys,42.4252,68.795,4.66,60,0,3.34,KZ,2023-11-14 00:11:18
77,petropavlovsk-kamchatsky,53.0452,158.6483,-3.08,74,0,12.52,RU,2023-11-14 00:11:18
78,whitehorse,60.7161,-135.0538,-4.43,85,100,9.39,CA,2023-11-14 00:11:19
79,belyy yar,53.6039,91.3903,-9.06,92,82,2.0,RU,2023-11-14 00:11:19
80,freetown,8.484,-13.2299,26.7,84,99,1.49,SL,2023-11-14 00:11:19
81,ilulissat,69.2167,-51.1,-3.99,63,75,7.2,GL,2023-11-14 00:11:20
82,rundu,-17.9333,19.7667,24.52,35,18,1.29,NA,2023-11-14 00:11:20
83,porto novo,6.4965,2.6036,26.25,87,2,1.93,BJ,2023-11-14 00:11:20
84,rosetta,31.4044,30.4164,21.7,70,0,4.19,EG,2023-11-14 00:11:20
85,puerto natales,-51.7236,-72.4875,1.97,77,53,3.93,CL,2023-11-14 00:10:18
86,antofagasta,-23.65,-70.4,17.72,74,30,3.23,CL,2023-11-14 00:11:21
87,namibe,-15.1961,12.1522,23.3,62,100,2.86,AO,2023-11-14 00:06:51
88,richards bay,-28.783,32.0377,17.67,84,100,4.5,ZA,2023-11-14 00:11:22
89,ulladulla,-35.35,150.4667,27.09,65,77,3.66,AU,2023-11-14 00:11:22
90,peace river,56.2501,-117.286,-4.83,86,100,3.6,CA,2023-11-14 00:08:35
91,newman,37.3138,-121.0208,24.05,44,55,0.45,US,2023-11-14 00:11:22
92,bethel,41.3712,-73.414,6.42,73,75,1.54,US,2023-11-14 00:11:22
93,san patricio,28.017,-97.5169,17.69,92,100,5.31,US,2023-11-14 00:11:23
94,dakoro,14.5106,6.765,23.41,12,32,4.41,NE,2023-11-14 00:11:23
95,ballina,-28.8667,153.5667,25.99,67,51,3.03,AU,2023-11-14 00:11:23
96,arkhangel'sk,64.5401,40.5433,-3.26,91,97,3.21,RU,2023-11-14 00:11:24
97,st. john's,47.5649,-52.7093,0.54,81,100,1.79,CA,2023-11-14 00:10:44
98,ushuaia,-54.8,-68.3,3.81,65,40,8.75,AR,2023-11-14 00:11:24
99,whakatane,-37.9585,176.9854,21.05,76,100,2.24,NZ,2023-11-14 00:11:25
100,tolanaro,-25.0319,46.9987,21.41,81,42,2.12,MG,2023-11-14 00:11:25
101,nemuro,43.3236,145.575,4.38,61,59,8.34,JP,2023-11-14 00:11:25
102,odacho-oda,35.1833,132.5,10.2,70,16,3.52,JP,2023-11-14 00:11:25
103,la passe,45.5549,-0.8967,16.13,94,100,7.21,FR,2023-11-14 00:11:26
104,tongchuanshi,35.0806,109.0897,3.75,57,1,1.35,CN,2023-11-14 00:11:26
105,khemisset,33.6667,-6.25,21.19,35,100,0.76,MA,2023-11-14 00:11:27
106,edinburgh of the seven seas,-37.0676,-12.3116,13.64,77,7,11.14,SH,2023-11-14 00:11:01
107,talnakh,69.4865,88.3972,-16.55,95,100,5.71,RU,2023-11-14 00:11:27
108,wainwright,52.839,-110.8572,3.69,61,100,0.78,CA,2023-11-14 00:11:27
109,palmer,42.1584,-72.3287,4.17,67,100,0.0,US,2023-11-14 00:10:18
110,i-n-salah,27.1935,2.4607,20.77,28,0,5.1,DZ,2023-11-14 00:11:28
111,malanje,-9.5402,16.341,17.92,96,89,0.8,AO,2023-11-14 00:11:28
112,salahonda,2.1019,-78.7217,26.96,85,36,4.78,CO,2023-11-14 00:11:29
113,nsanje,-16.92,35.262,21.39,82,5,2.0,MW,2023-11-14 00:11:29
114,charters towers,-20.1,146.2667,28.7,29,0,5.73,AU,2023-11-14 00:07:12
115,ugoofaaru,5.6667,73.0,27.3,78,77,3.4,MV,2023-11-14 00:11:29
116,olyokminsk,60.3736,120.4264,-10.16,95,100,1.99,RU,2023-11-14 00:11:30
117,cabo san lucas,22.8909,-109.9124,29.78,67,22,1.71,MX,2023-11-14 00:00:29
118,hadibu,12.65,54.0333,26.05,87,96,4.73,YE,2023-11-14 00:11:31
119,akrehamn,59.2667,5.1833,6.34,52,89,5.66,NO,2023-11-14 00:11:31
120,motueka,-41.1333,173.0167,19.7,59,66,3.95,NZ,2023-11-14 00:11:31
121,almeirim,-1.5233,-52.5817,29.13,43,89,1.82,BR,2023-11-14 00:11:32
122,coyhaique,-45.5752,-72.0662,2.34,93,100,3.73,CL,2023-11-14 00:06:38
123,watsa,3.0372,29.5355,17.89,98,99,0.6,CD,2023-11-14 00:11:32
124,punta arenas,-53.15,-70.9167,3.95,64,67,7.08,CL,2023-11-14 00:11:33
125,kuta,-8.7233,115.1723,27.97,88,75,2.24,ID,2023-11-14 00:11:33
126,petauke,-14.2426,31.3253,24.44,51,37,4.73,ZM,2023-11-14 00:11:33
127,lobujya,27.95,86.8167,-8.99,23,46,0.68,NP,2023-11-14 00:11:33
128,yung shue wan,22.2333,114.1167,20.34,74,72,4.47,HK,2023-11-14 00:11:34
129,tiksi,71.6872,128.8694,-14.36,91,100,3.07,RU,2023-11-14 00:11:32
130,utrik,11.2278,169.8474,28.14,81,96,8.05,MH,2023-11-14 00:11:34
131,nagqu,31.5,92.0,-8.05,41,81,1.79,CN,2023-11-14 00:11:34
132,metlili chaamba,32.2667,3.6333,16.07,48,0,1.45,DZ,2023-11-14 00:11:35
133,arawa,-6.2132,155.5367,29.49,64,100,0.39,PG,2023-11-14 00:11:35
134,parham,17.0968,-61.7705,26.13,74,10,0.89,AG,2023-11-14 00:11:35
135,chivhu,-19.0211,30.8922,16.12,74,39,4.22,ZW,2023-11-14 00:11:35
136,diffa,13.3154,12.6113,26.69,20,83,3.93,NE,2023-11-14 00:11:35
137,balakhta,55.38,91.6,-1.29,98,100,5.07,RU,2023-11-14 00:11:16
138,wuda,39.4994,106.7117,-0.41,28,0,2.5,CN,2023-11-14 00:11:36
139,firuzabad,28.8438,52.5707,13.42,37,17,0.98,IR,2023-11-14 00:11:36
140,santa terezinha,-29.9002,-50.0904,20.53,96,100,2.16,BR,2023-11-14 00:11:37
141,lebu,-37.6167,-73.65,10.7,83,31,3.01,CL,2023-11-14 00:11:37
142,tindouf,27.6711,-8.1474,21.93,30,0,3.34,DZ,2023-11-14 00:11:37
143,cascais,38.6979,-9.4215,17.19,92,25,4.02,PT,2023-11-14 00:11:37
144,klyuchi,52.2667,79.1667,3.57,90,100,4.82,RU,2023-11-14 00:11:38
145,todos santos,23.45,-110.2167,28.02,63,27,1.34,MX,2023-11-14 00:11:38
146,karagay,58.2667,54.9368,3.7,96,100,5.24,RU,2023-11-14 00:11:38
147,fort mcmurray,56.7268,-111.381,-3.23,86,100,2.57,CA,2023-11-14 00:11:39
148,kalabo,-14.97,22.6814,23.96,56,55,3.04,ZM,2023-11-14 00:11:39
149,carnarvon,-24.8667,113.6333,21.2,69,59,3.28,AU,2023-11-14 00:11:05
150,sukumo,32.9333,132.7333,12.66,56,7,1.7,JP,2023-11-14 00:08:55
151,garissa,-0.4536,39.6401,25.44,84,92,4.33,KE,2023-11-14 00:11:40
152,kargil,34.5667,76.1,-3.41,50,4,1.12,IN,2023-11-14 00:10:05
153,oudtshoorn,-33.5907,22.2014,13.45,84,11,0.64,ZA,2023-11-14 00:11:40
154,lebork,54.5392,17.7501,4.95,81,100,4.56,PL,2023-11-14 00:11:40
155,nar'yan-mar,67.6713,53.087,-11.05,88,100,4.02,RU,2023-11-14 00:10:55
156,hami,42.8,93.45,2.8,30,100,5.49,CN,2023-11-14 00:11:41
157,tianpeng,30.9866,103.9393,10.91,86,100,1.84,CN,2023-11-14 00:11:41
158,chui,-33.6971,-53.4616,16.41,86,100,5.06,UY,2023-11-14 00:11:41
159,juneau,58.3019,-134.4197,2.0,92,100,5.14,US,2023-11-14 00:11:15
160,christchurch,-43.5333,172.6333,24.12,38,49,6.17,NZ,2023-11-14 00:11:42
161,brookings,44.3114,-96.7984,13.0,41,0,7.2,US,2023-11-14 00:11:42
162,fada,9.5667,8.3,22.01,40,84,1.82,NG,2023-11-14 00:11:42
163,atafu village,-8.5421,-172.5159,28.7,80,100,4.87,TK,2023-11-14 00:11:43
164,port saint john's,-31.6229,29.5448,16.79,79,100,3.32,ZA,2023-11-14 00:07:42
165,northam,51.0333,-4.2167,13.12,91,58,11.09,GB,2023-11-14 00:11:43
166,berezovyy,51.6667,135.7,-8.23,62,7,1.17,RU,2023-11-14 00:11:43
167,villa gesell,-37.2639,-56.973,13.92,51,56,5.65,AR,2023-11-14 00:11:44
168,krasnyy chikoy,50.3643,108.7512,-12.86,93,58,0.87,RU,2023-11-14 00:11:44
169,belen,36.4891,36.2233,13.08,95,75,4.12,TR,2023-11-14 00:11:44
170,port lincoln,-34.7333,135.8667,16.32,72,97,4.76,AU,2023-11-14 00:11:39
171,upper grand lagoon,30.1633,-85.7408,17.08,78,100,2.68,US,2023-11-14 00:11:45
172,crane,31.3974,-102.3501,11.34,83,100,3.67,US,2023-11-14 00:11:45
173,queenstown,-31.8976,26.8753,10.71,81,100,3.47,ZA,2023-11-14 00:11:45
174,addiet canna,11.2667,37.4833,14.95,83,79,1.17,ET,2023-11-14 00:11:45
175,bryne,58.7354,5.6477,6.1,63,0,4.63,NO,2023-11-14 00:11:46
176,djibo,14.1022,-1.6306,26.7,13,0,3.47,BF,2023-11-14 00:11:46
177,yuzhno-kurilsk,44.0306,145.8556,2.43,80,99,8.18,RU,2023-11-14 00:11:46
178,pavlohrad,48.5167,35.8667,5.79,70,100,1.45,UA,2023-11-14 00:11:47
179,constantia,44.1833,28.65,2.38,49,0,4.19,RO,2023-11-14 00:11:47
180,qaqortoq,60.7167,-46.0333,-5.94,93,100,1.26,GL,2023-11-14 00:11:47
181,thompson,55.7435,-97.8558,-1.91,86,100,2.06,CA,2023-11-14 00:11:48
182,jalesar,27.4833,78.3167,19.68,43,100,1.18,IN,2023-11-14 00:11:48
183,enewetak,11.3474,162.3373,28.39,80,93,8.67,MH,2023-11-14 00:11:48
184,kalmunai,7.4167,81.8167,24.75,89,91,1.97,LK,2023-11-14 00:11:48
185,fatehpur,25.9333,80.8,19.58,52,99,0.33,IN,2023-11-14 00:11:48
186,ancud,-41.8697,-73.8203,7.53,67,25,4.52,CL,2023-11-14 00:11:49
187,hasaki,35.7333,140.8333,12.94,42,0,5.35,JP,2023-11-14 00:11:49
188,bilibino,68.0546,166.4372,-28.08,100,100,2.0,RU,2023-11-14 00:11:50
189,hays,30.0502,-98.0336,17.08,87,78,4.58,US,2023-11-14 00:11:51
190,sosnovo-ozerskoye,52.5249,111.5418,-16.91,99,94,1.38,RU,2023-11-14 00:07:08
191,nova vicosa,-17.8919,-39.3719,24.96,81,66,7.45,BR,2023-11-14 00:11:12
192,walvis bay,-22.9575,14.5053,15.78,87,26,2.38,NA,2023-11-14 00:11:51
193,nassau,40.7507,-73.5829,8.85,74,75,1.54,US,2023-11-14 00:07:34
194,meulaboh,4.1363,96.1285,24.39,93,100,1.32,ID,2023-11-14 00:07:19
195,ridgecrest,35.6225,-117.6709,20.94,18,40,1.54,US,2023-11-14 00:09:50
196,klaksvik,62.2266,-6.589,7.51,78,29,10.7,FO,2023-11-14 00:11:52
197,kavieng,-2.5744,150.7967,28.38,69,99,1.43,PG,2023-11-14 00:11:52
198,jianshui,23.6363,102.8264,15.35,96,98,1.09,CN,2023-11-14 00:11:52
199,pattani,6.75,100.4167,24.84,95,100,0.97,TH,2023-11-14 00:11:53
200,qashar,53.3906,62.9297,4.88,84,100,8.61,KZ,2023-11-14 00:11:53
201,kurumkan,54.3,110.3,-9.37,92,98,1.79,RU,2023-11-14 00:11:53
202,hongch'on,37.6918,127.8857,1.4,55,96,0.76,KR,2023-11-14 00:11:54
203,solnechnyy,50.7214,136.6319,-14.43,76,24,0.91,RU,2023-11-14 00:11:54
204,la'ie,21.6477,-157.9253,28.98,75,86,3.58,US,2023-11-14 00:11:54
205,saldanha,-33.0117,17.9442,16.26,72,2,4.51,ZA,2023-11-14 00:11:55
206,ghanzi,-21.5667,21.7833,26.7,29,33,0.85,BW,2023-11-14 00:11:55
207,saint gabriel,30.2577,-91.0993,16.97,95,100,2.57,US,2023-11-14 00:11:55
208,hilo,19.7297,-155.09,27.85,70,40,3.6,US,2023-11-14 00:11:15
209,kaspiyskiy,45.3929,47.3707,10.34,87,99,5.0,RU,2023-11-14 00:11:55
210,afaahiti,-17.75,-149.2833,27.93,88,93,5.7,PF,2023-11-14 00:11:56
211,filiatra,37.15,21.5833,15.94,75,12,4.32,GR,2023-11-14 00:11:56
212,fukuecho,32.6881,128.8419,13.22,59,63,4.77,JP,2023-11-14 00:10:10
213,camana,-16.6228,-72.7111,19.18,84,71,2.97,PE,2023-11-14 00:10:18
214,mejit,10.2753,170.8646,27.98,81,68,8.02,MH,2023-11-14 00:11:34
215,stanley,54.868,-1.6985,8.77,88,20,7.2,GB,2023-11-14 00:11:57
216,noshiro,40.2039,140.0242,7.71,66,100,8.01,JP,2023-11-14 00:11:57
217,santa cruz,-17.8,-63.1667,29.7,70,20,4.12,BO,2023-11-14 00:07:24
218,korla,41.7597,86.1469,3.9,51,84,1.14,CN,2023-11-14 00:11:57
219,kitee,62.1,30.15,0.12,89,99,3.91,FI,2023-11-14 00:11:57
220,davos,46.8043,9.8372,5.19,98,100,1.94,CH,2023-11-14 00:11:57
221,ketchikan,55.3422,-131.6461,5.99,70,0,1.54,US,2023-11-14 00:11:58
222,heroica caborca,30.7167,-112.15,26.88,23,0,6.67,MX,2023-11-14 00:11:58
223,tazacorte,28.629,-17.9293,23.97,37,75,4.12,ES,2023-11-14 00:07:20
224,south hedland,-20.4089,118.5983,26.96,57,17,6.17,AU,2023-11-14 00:11:58
225,kachia,9.8667,7.95,22.07,27,95,2.04,NG,2023-11-14 00:11:58
226,kilindoni,-7.9139,39.6668,26.84,82,18,2.5,TZ,2023-11-14 00:11:59
227,taoudenni,22.6783,-3.9836,25.29,18,4,6.23,ML,2023-11-14 00:11:59
228,nanma,36.1817,118.1583,1.45,33,7,0.9,CN,2023-11-14 00:11:59
229,papao,-17.75,-149.55,28.82,90,98,6.23,PF,2023-11-14 00:11:59
230,linxia chengguanzhen,35.6003,103.2064,1.87,66,0,0.27,CN,2023-11-14 00:11:59
231,bealanana,-14.55,48.7333,18.01,92,48,0.06,MG,2023-11-14 00:12:00
232,kajuru,10.3192,7.6892,20.91,25,88,2.02,NG,2023-11-14 00:12:00
233,khandud,36.9513,72.318,-8.16,61,1,0.6,AF,2023-11-14 00:12:00
234,sturgis,41.7992,-85.4192,8.14,49,0,0.0,US,2023-11-14 00:12:00
235,ormara,25.2088,64.6357,24.45,55,58,1.7,PK,2023-11-14 00:12:01
236,samraong,12.4526,105.5873,25.35,76,70,3.29,KH,2023-11-14 00:12:01
237,holualoa,19.6228,-155.9522,26.39,75,40,5.14,US,2023-11-14 00:12:01
238,barcelos,41.5388,-8.6151,18.08,90,99,3.19,PT,2023-11-14 00:12:01
239,maxixe,-23.8597,35.3472,21.79,66,92,5.98,MZ,2023-11-14 00:12:02
240,sarina,-21.4333,149.2167,29.04,45,6,3.9,AU,2023-11-14 00:12:02
241,wewak,-3.5534,143.6268,28.06,78,99,2.2,PG,2023-11-14 00:12:02
242,puerto leguizamo,-0.1934,-74.7819,26.35,81,79,1.03,CO,2023-11-14 00:12:03
243,sao lourenco do sul,-31.3653,-51.9783,19.76,93,100,1.91,BR,2023-11-14 00:10:21
244,egilsstadir,65.2653,-14.3948,1.95,87,75,4.63,IS,2023-11-14 00:12:04
245,mirpur sakro,24.5474,67.6277,22.58,26,97,3.73,PK,2023-11-14 00:12:04
246,conde,-7.2597,-34.9075,24.7,94,75,4.12,BR,2023-11-14 00:12:04
247,arraial do cabo,-22.9661,-42.0278,23.89,89,67,4.44,BR,2023-11-14 00:07:26
248,oyama,36.3,139.8,11.99,40,2,2.23,JP,2023-11-14 00:12:05
249,sitka,57.0531,-135.33,5.94,81,100,3.6,US,2023-11-14 00:12:06
250,morondava,-20.2833,44.2833,23.03,80,0,3.69,MG,2023-11-14 00:12:06
251,malvan,16.0667,73.4667,25.43,58,98,1.88,IN,2023-11-14 00:12:06
252,san fernando de apure,7.8878,-67.4724,26.58,75,76,1.12,VE,2023-11-14 00:12:06
253,kapuskasing,49.4169,-82.4331,1.05,93,100,4.12,CA,2023-11-14 00:12:07
254,san jose de jachal,-30.2406,-68.7469,17.37,17,2,1.6,AR,2023-11-14 00:12:07
255,chegdomyn,51.1167,133.0167,-13.13,88,43,0.26,RU,2023-11-14 00:12:08
256,moyynkum,44.2914,72.9469,2.82,68,0,6.79,KZ,2023-11-14 00:12:08
257,nuuk,64.1835,-51.7216,-3.66,86,100,6.17,GL,2023-11-14 00:07:50
258,kitimat,54.0524,-128.6534,4.39,79,73,1.34,CA,2023-11-14 00:12:09
259,bardai,11.65,7.2333,21.71,23,75,3.12,NG,2023-11-14 00:12:09
260,invercargill,-46.4,168.35,17.23,63,51,4.47,NZ,2023-11-14 00:10:27
261,mata de sao joao,-12.5303,-38.2992,25.86,88,8,2.01,BR,2023-11-14 00:12:10
262,richmond,37.5538,-77.4603,8.98,78,20,1.54,US,2023-11-14 00:00:48
263,mandera,3.9366,41.867,26.67,75,94,3.36,KE,2023-11-14 00:12:10
264,camacupa,-12.0167,17.4833,18.49,81,99,1.02,AO,2023-11-14 00:12:11
265,san ignacio de velasco,-16.3667,-60.95,29.23,51,61,3.21,BO,2023-11-14 00:12:11
266,jeddah,21.5169,39.2192,28.92,65,0,1.54,SA,2023-11-14 00:07:56
267,saudarkrokur,65.7461,-19.6394,-1.6,83,35,4.08,IS,2023-11-14 00:12:12
268,sandakan,5.8402,118.1179,25.63,91,74,1.44,MY,2023-11-14 00:12:13
269,nuku'alofa,-21.1333,-175.2,22.19,100,100,8.23,TO,2023-11-14 00:12:13
270,el triunfo,-1.9333,-79.9667,27.02,58,79,4.34,EC,2023-11-14 00:12:13
271,westport,41.1415,-73.3579,7.14,74,95,3.58,US,2023-11-14 00:10:28
272,saint croix,17.7397,-64.7388,27.25,79,0,3.6,VI,2023-11-14 00:12:14
273,villa juarez,24.6536,-107.5411,32.14,43,0,2.57,MX,2023-11-14 00:09:43
274,chonchi,-42.6128,-73.8092,6.56,79,51,2.11,CL,2023-11-14 00:12:15
275,faya-largeau,17.9257,19.1043,25.69,18,75,10.69,TD,2023-11-14 00:12:15
276,east london,-33.0153,27.9116,15.99,74,100,2.67,ZA,2023-11-14 00:12:15
277,totness,5.8833,-56.3167,27.08,82,36,5.12,SR,2023-11-14 00:12:15
278,tateyama,34.9833,139.8667,16.17,45,0,1.78,JP,2023-11-14 00:12:16
279,tralee,52.2704,-9.7026,11.24,87,79,7.17,IE,2023-11-14 00:12:16
280,nianzishan,47.5167,122.8833,-8.18,81,13,1.17,CN,2023-11-14 00:12:17
281,lethem,3.3803,-59.7968,30.36,41,79,2.89,GY,2023-11-14 00:12:17
282,craigavon,54.4471,-6.387,9.87,88,72,5.6,GB,2023-11-14 00:12:17
283,ta`u,-14.2336,-169.5144,28.18,81,72,5.74,AS,2023-11-14 00:12:08
284,sao joao da barra,-21.6403,-41.0511,24.04,89,100,6.09,BR,2023-11-14 00:09:00
285,suntar,62.1444,117.6319,-7.75,95,100,2.74,RU,2023-11-14 00:12:18
286,siniscola,40.5719,9.6922,19.75,82,51,4.03,IT,2023-11-14 00:12:18
287,kadugli,11.0167,29.7167,28.08,38,57,2.07,SD,2023-11-14 00:12:18
288,ikot ekpene,5.1794,7.7108,24.28,94,98,1.67,NG,2023-11-14 00:12:19
289,pointe-du-lac,46.2869,-72.6845,1.0,74,100,1.54,CA,2023-11-14 00:12:19
290,kupino,54.3663,77.2981,0.72,91,93,3.01,RU,2023-11-14 00:12:19
291,el granada,37.5027,-122.4694,20.32,71,75,5.66,US,2023-11-14 00:12:19
292,bangassou,4.7413,22.8184,21.1,99,100,1.11,CF,2023-11-14 00:12:20
293,embarcacion,-23.209,-64.096,23.45,82,100,1.24,AR,2023-11-14 00:07:45
294,beira,-19.8436,34.8389,23.81,84,73,4.21,MZ,2023-11-14 00:12:20
295,mukalla,14.5425,49.1242,25.04,79,92,2.16,YE,2023-11-14 00:12:20
296,ataq,14.5377,46.8319,20.17,68,69,0.91,YE,2023-11-14 00:12:21
297,mumbwa,-14.9783,27.0619,22.53,50,78,1.94,ZM,2023-11-14 00:12:21
298,williamsport,41.2412,-77.0011,4.3,81,0,2.06,US,2023-11-14 00:12:08
299,rio gallegos,-51.6226,-69.2181,5.81,45,93,10.58,AR,2023-11-14 00:12:22
300,hawaiian paradise park,19.5933,-154.9731,27.73,70,40,3.6,US,2023-11-14 00:11:24
301,gadzhiyevo,69.2551,33.3362,-8.78,96,98,0.94,RU,2023-11-14 00:12:22
302,topki,55.2769,85.6163,-0.11,98,100,4.8,RU,2023-11-14 00:12:23
303,mogocha,53.7333,119.7667,-11.13,76,72,1.23,RU,2023-11-14 00:12:23
304,iguape,-24.7081,-47.5553,24.23,92,46,2.08,BR,2023-11-14 00:12:23
305,fale old settlement,-9.3852,-171.2468,27.07,87,100,7.43,TK,2023-11-14 00:12:23
306,udachny,66.4167,112.4,-5.86,85,100,3.92,RU,2023-11-14 00:09:32
307,arkalyk,50.2486,66.9114,2.51,84,100,4.1,KZ,2023-11-14 00:12:24
308,ust-nera,64.5667,143.2,-30.69,98,62,2.16,RU,2023-11-14 00:11:56
309,khandyga,62.6667,135.6,-32.12,100,59,1.41,RU,2023-11-14 00:11:58
310,foumban,5.7291,10.9001,17.29,91,86,1.07,CM,2023-11-14 00:12:25
311,margate,51.3813,1.3862,13.28,78,35,6.26,GB,2023-11-14 00:12:25
312,coahuayana de hidalgo,18.7,-103.6583,27.91,76,24,1.58,MX,2023-11-14 00:12:25
313,jutai,-5.1833,-68.9,25.05,94,97,0.95,BR,2023-11-14 00:12:26
314,khash,28.2211,61.2158,13.24,31,49,1.03,IR,2023-11-14 00:12:26
315,hammerfest,70.6634,23.6821,-0.75,80,75,3.09,NO,2023-11-14 00:12:27
316,prince george,53.9166,-122.753,1.25,94,75,3.6,CA,2023-11-14 00:12:27
317,arauca,7.0847,-70.7591,24.41,94,56,1.95,CO,2023-11-14 00:12:27
318,alcaniz,41.05,-0.1333,16.61,57,31,2.23,ES,2023-11-14 00:12:27
319,ulsteinvik,62.3432,5.8487,3.2,77,0,3.13,NO,2023-11-14 00:12:28
320,laguna,38.421,-121.4238,22.34,45,0,2.57,US,2023-11-14 00:12:28
321,kerikeri,-35.2268,173.9474,21.62,67,79,0.45,NZ,2023-11-14 00:12:28
322,ola,59.5833,151.2833,-15.19,78,61,5.93,RU,2023-11-14 00:12:29
323,mawlamyinegyunn,16.3833,95.2667,23.67,90,80,2.78,MM,2023-11-14 00:12:29
324,uturoa,-16.7333,-151.4333,27.12,82,95,6.2,PF,2023-11-14 00:11:50
325,badiyah,22.45,58.8,20.84,44,10,1.65,OM,2023-11-14 00:12:30
326,puerto real,36.5282,-6.1901,17.01,82,0,3.09,ES,2023-11-14 00:12:30
327,dixon,38.4455,-121.8233,22.18,50,0,1.54,US,2023-11-14 00:12:30
328,pea ridge,38.414,-82.3199,11.34,71,22,0.45,US,2023-11-14 00:12:31
329,bonthe,7.5264,-12.505,26.75,86,100,2.13,SL,2023-11-14 00:12:31
330,el calafate,-50.3408,-72.2768,4.41,51,21,6.05,AR,2023-11-14 00:12:31
331,aykhal,66.0,111.5,-9.15,92,100,5.08,RU,2023-11-14 00:12:32
332,wolmaransstad,-27.1974,25.9831,16.89,41,0,5.46,ZA,2023-11-14 00:12:32
333,melfi,40.9965,15.6514,11.74,91,32,3.37,IT,2023-11-14 00:12:32
334,kiama,-34.6833,150.8667,25.21,64,79,4.89,AU,2023-11-14 00:12:33
335,lucapa,-8.4192,20.7447,18.21,97,58,0.34,AO,2023-11-14 00:12:33
336,bowen,-20.0167,148.2333,25.72,61,3,5.39,AU,2023-11-14 00:12:33
337,chico,39.7285,-121.8375,22.04,43,22,2.31,US,2023-11-14 00:06:33
338,cidreira,-30.1811,-50.2056,20.41,96,100,2.7,BR,2023-11-14 00:12:34
339,kapa'a,22.0752,-159.319,29.99,81,100,6.17,US,2023-11-14 00:12:34
340,laojunmiao,39.8333,97.7333,-2.6,40,56,2.17,CN,2023-11-14 00:12:34
341,kurchatov,51.6601,35.6521,4.23,92,40,5.0,RU,2023-11-14 00:12:35
342,zarinsk,53.7074,84.9493,0.97,99,100,4.92,RU,2023-11-14 00:12:35
343,el ayote,12.1905,-85.2874,22.06,92,100,4.2,NI,2023-11-14 00:12:35
344,codrington,-38.2667,141.9667,15.48,62,100,3.24,AU,2023-11-14 00:12:35
345,pacasmayo,-7.4006,-79.5714,20.33,80,26,7.23,PE,2023-11-14 00:12:36
346,yeppoon,-23.1333,150.7333,27.88,53,0,5.2,AU,2023-11-14 00:12:37
347,beau vallon,-20.4189,57.6953,23.45,94,75,1.54,MU,2023-11-14 00:12:21
348,nyurba,63.2842,118.3319,-12.36,97,100,2.37,RU,2023-11-14 00:12:37
349,rome,34.257,-85.1647,15.82,66,0,0.45,US,2023-11-14 00:12:38
350,hrastnik,46.1461,15.0814,13.28,91,99,2.27,SI,2023-11-14 00:12:38
351,horta,38.5333,-28.6333,15.57,91,100,1.34,PT,2023-11-14 00:08:34
352,bamboo flat,11.7,92.7167,26.05,89,100,3.6,IN,2023-11-14 00:12:39
353,saint-joseph,-21.3667,55.6167,22.48,78,80,2.61,RE,2023-11-14 00:12:39
354,nanao,37.05,136.9667,10.21,83,99,1.92,JP,2023-11-14 00:12:39
355,muang phonsavan,19.45,103.2167,15.77,96,99,1.27,LA,2023-11-14 00:12:40
356,palikir - national government center,6.9248,158.1611,29.47,79,100,2.06,FM,2023-11-14 00:12:40
357,pisco,-13.7,-76.2167,20.57,88,0,5.14,PE,2023-11-14 00:12:40
358,barclayville,4.6797,-8.2339,24.76,93,30,1.62,LR,2023-11-14 00:12:40
359,jose maria morelos,23.3952,-103.8984,17.28,64,86,0.99,MX,2023-11-14 00:12:41
360,ko pha ngan,9.7578,100.0291,26.33,71,100,6.56,TH,2023-11-14 00:12:41
361,fortuna,40.5982,-124.1573,14.99,91,0,4.63,US,2023-11-14 00:12:41
362,udaipura,23.0833,78.5,16.23,61,30,2.46,IN,2023-11-14 00:12:42
363,qarqaraly,49.4058,75.4742,-0.59,91,99,1.87,KZ,2023-11-14 00:12:42
364,mount pearl,47.5166,-52.7813,0.08,81,75,3.6,CA,2023-11-14 00:12:42
365,carutapera,-1.195,-46.02,25.64,81,33,3.4,BR,2023-11-14 00:12:42
366,ustka,54.5805,16.8619,4.8,96,100,6.81,PL,2023-11-14 00:12:42
367,borogontsy,62.6683,131.1683,-29.9,100,100,1.21,RU,2023-11-14 00:12:43
368,gudauta,43.1055,40.6207,18.51,67,100,3.05,GE,2023-11-14 00:12:43
369,pedernales,18.0384,-71.744,27.47,65,2,3.83,DO,2023-11-14 00:12:43
370,montepuez,-13.1256,38.9997,21.42,90,87,1.91,MZ,2023-11-14 00:12:44
371,zouerate,22.7187,-12.4521,25.21,16,34,4.35,MR,2023-11-14 00:12:44
372,mwinilunga,-11.7358,24.4293,17.56,88,99,1.26,ZM,2023-11-14 00:12:44
373,xapuri,-10.6517,-68.5044,26.66,74,90,1.39,BR,2023-11-14 00:12:44
374,okahandja,-21.9833,16.9167,25.01,37,94,3.26,NA,2023-11-14 00:12:45
375,pavlodar,52.3,76.95,2.89,87,100,5.0,KZ,2023-11-14 00:12:45
376,cestos city,5.46,-9.5828,26.66,86,63,2.65,LR,2023-11-14 00:12:45
377,ca mau,9.1769,105.15,25.37,89,100,4.08,VN,2023-11-14 00:09:10
378,eyl,7.9803,49.8164,26.86,78,94,5.58,SO,2023-11-14 00:12:46
379,port alfred,-33.5906,26.891,14.54,94,96,5.35,ZA,2023-11-14 00:12:25
380,cam pha mines,21.0167,107.3,16.21,72,99,2.4,VN,2023-11-14 00:12:47
381,vadso,70.0744,29.7487,-7.91,86,40,6.17,NO,2023-11-14 00:12:47
382,isangel,-19.55,169.2667,26.06,69,75,3.09,VU,2023-11-14 00:12:47
383,calama,-22.4667,-68.9333,16.78,26,0,3.52,CL,2023-11-14 00:09:04
384,lerwick,60.1545,-1.1494,7.83,74,82,6.73,GB,2023-11-14 00:12:47
385,mount isa,-20.7333,139.5,34.87,21,2,5.66,AU,2023-11-14 00:12:48
386,khanty-mansiysk,61.0042,69.0019,-4.94,93,75,4.02,RU,2023-11-14 00:12:48
387,inirida,3.8653,-67.9239,25.39,87,49,0.6,CO,2023-11-14 00:12:48
388,guiberoua,6.2392,-6.1727,22.67,99,36,0.95,CI,2023-11-14 00:12:49
389,sakakah,29.9697,40.2064,21.76,32,41,2.79,SA,2023-11-14 00:12:49
390,chimoio,-19.1164,33.4833,18.23,85,17,1.03,MZ,2023-11-14 00:12:49
391,ukiah,39.1502,-123.2078,19.13,54,0,5.14,US,2023-11-14 00:09:17
392,porto murtinho,-21.6989,-57.8825,29.47,58,75,1.49,BR,2023-11-14 00:12:49
393,paita,-5.0892,-81.1144,20.75,84,12,8.38,PE,2023-11-14 00:12:49
394,smithers,54.7804,-127.1743,1.18,86,75,2.06,CA,2023-11-14 00:12:50
395,dudinka,69.4058,86.1778,-16.32,88,69,4.75,RU,2023-11-14 00:12:50
396,san andres,12.5847,-81.7006,28.01,83,20,1.03,CO,2023-11-14 00:12:50
397,labrador city,52.9463,-66.9114,-9.05,86,100,1.54,CA,2023-11-14 00:12:50
398,sinan,34.8262,126.1086,10.6,64,51,5.57,KR,2023-11-14 00:12:51
399,tadine,-21.55,167.8833,24.04,53,83,7.73,NC,2023-11-14 00:12:51
400,puerto aysen,-45.4,-72.7,3.24,97,100,2.78,CL,2023-11-14 00:12:51
401,al jawf,29.5,38.75,21.25,48,48,4.0,SA,2023-11-14 00:12:51
402,miri,4.4148,114.0089,25.68,88,100,1.96,MY,2023-11-14 00:12:51
403,balsas,-7.5325,-46.0356,28.7,37,0,2.24,BR,2023-11-14 00:12:51
404,kurmuk,10.55,34.2833,24.49,66,4,1.26,SD,2023-11-14 00:12:52
405,ungsang-nodongjagu,42.3578,130.4622,1.28,48,0,2.91,KP,2023-11-14 00:12:52
406,hamilton,39.1834,-84.5333,12.83,47,0,2.06,US,2023-11-14 00:09:49
407,kolonia,50.9333,6.95,12.36,75,40,6.17,DE,2023-11-14 00:12:22
408,al ain city,24.1917,55.7606,22.87,16,93,2.84,AE,2023-11-14 00:12:52
409,yangquan,37.8575,113.5633,2.97,41,14,2.46,CN,2023-11-14 00:12:52
410,yarmouth,41.7057,-70.2286,5.01,82,100,1.34,US,2023-11-14 00:12:53
411,monopoli,40.9559,17.2896,16.34,71,18,1.85,IT,2023-11-14 00:12:53
412,keflavik,64.0049,-22.5624,7.24,65,0,7.72,IS,2023-11-14 00:12:53
413,port pirie,-33.1833,138.0167,23.23,40,91,3.64,AU,2023-11-14 00:12:53
414,dadukou,26.5479,101.7054,13.02,88,0,0.63,CN,2023-11-14 00:12:53
415,camocim,-2.9022,-40.8411,27.01,76,90,5.85,BR,2023-11-14 00:12:53
416,maiduguri,11.8464,13.1603,26.63,24,88,3.23,NG,2023-11-14 00:12:54
417,castillos,-34.1667,-53.8333,15.42,89,100,3.69,UY,2023-11-14 00:12:19
418,boguchany,58.3814,97.4531,1.03,97,100,4.47,RU,2023-11-14 00:12:54
419,la libertad,-2.2333,-80.9,23.52,84,62,4.45,EC,2023-11-14 00:12:54
420,lihue,21.9789,-159.3672,29.58,76,100,6.17,US,2023-11-14 00:12:18
421,malango,-2.9627,119.9001,23.86,67,71,0.21,ID,2023-11-14 00:12:54
422,znamenka,52.4167,41.4311,4.34,93,49,4.54,RU,2023-11-14 00:12:54
423,sakata,38.9167,139.855,9.84,71,100,9.6,JP,2023-11-14 00:12:55
424,pleasanton,37.6624,-121.8747,21.41,58,0,2.57,US,2023-11-14 00:12:22
425,lewistown,40.5992,-77.5714,12.67,70,0,6.17,US,2023-11-14 00:12:04
426,talladega,33.4359,-86.1058,14.98,67,0,0.0,US,2023-11-14 00:12:55
427,sisimiut,66.9395,-53.6735,-8.35,79,100,3.83,GL,2023-11-14 00:12:55
428,kem',64.9555,34.5793,-0.77,95,100,7.32,RU,2023-11-14 00:12:55
429,tabuk,17.4189,121.4443,23.37,93,100,2.69,PH,2023-11-14 00:12:55
430,zhezqazghan,47.7833,67.7667,2.18,84,50,3.66,KZ,2023-11-14 00:12:56
431,levuka,50.1834,-105.4011,1.9,64,93,4.48,CA,2023-11-14 00:12:56
432,pasni,25.2631,63.471,24.38,58,5,2.55,PK,2023-11-14 00:12:56
433,ulety,51.3572,112.4849,-12.66,91,51,1.56,RU,2023-11-14 00:12:56
434,mata-utu,-13.2816,-176.1745,28.91,75,63,4.11,WF,2023-11-14 00:12:56
435,san luis de la loma,17.2706,-100.8939,27.68,80,46,2.68,MX,2023-11-14 00:12:57
436,aldan,58.6031,125.3894,-15.43,92,93,2.65,RU,2023-11-14 00:12:57
437,gorontalo,0.5412,123.0595,28.24,77,95,0.47,ID,2023-11-14 00:12:57
438,sotouboua,8.5667,0.9833,25.37,56,20,0.75,TG,2023-11-14 00:10:23
439,spas-klepiki,55.1347,40.1767,5.52,78,97,5.77,RU,2023-11-14 00:12:57
440,zhangye,38.9342,100.4517,-0.1,38,8,3.87,CN,2023-11-14 00:12:57
441,mahina,-17.5065,-149.489,28.87,79,20,4.63,PF,2023-11-14 00:09:08
442,banda aceh,5.5577,95.3222,26.03,86,100,4.25,ID,2023-11-14 00:05:50
443,panama city beach,30.1766,-85.8055,17.07,80,0,3.6,US,2023-11-14 00:12:58
444,sinabang,2.4803,96.3801,23.76,95,100,0.69,ID,2023-11-14 00:07:58
445,kavaratti,10.5669,72.642,27.35,72,93,1.76,IN,2023-11-14 00:12:58
446,imbituba,-28.24,-48.6703,24.92,97,100,1.87,BR,2023-11-14 00:12:58
447,beatrice,40.2681,-96.747,15.15,26,0,3.09,US,2023-11-14 00:12:58
448,nurota,40.5614,65.6886,7.18,36,6,1.94,UZ,2023-11-14 00:12:58
449,peniche,39.3558,-9.3811,16.36,91,63,3.3,PT,2023-11-14 00:12:59
450,euclides da cunha,-10.5075,-39.0158,23.62,50,23,4.08,BR,2023-11-14 00:12:59
451,prince rupert,54.3161,-130.3201,6.83,78,75,2.57,CA,2023-11-14 00:12:59
452,vila velha,-20.3297,-40.2925,26.97,82,0,5.81,BR,2023-11-14 00:12:59
453,as saffaniyah,27.9708,48.73,22.92,61,1,2.03,SA,2023-11-14 00:12:59
454,serdar,38.9764,56.2757,14.06,40,15,4.02,TM,2023-11-14 00:13:00
455,ago-are,8.5,3.4167,25.29,47,4,1.48,NG,2023-11-14 00:13:00
456,anna regina,7.2644,-58.5077,26.03,86,5,3.51,GY,2023-11-14 00:13:00
457,zhangjiajie,29.1294,110.4783,7.38,84,5,0.34,CN,2023-11-14 00:13:01
458,safaga,26.7292,33.9365,25.84,62,0,4.52,EG,2023-11-14 00:13:02
459,corner brook,48.9667,-57.9484,-4.01,94,39,1.28,CA,2023-11-14 00:13:03
460,liepaja,56.5419,21.0367,3.99,93,100,1.54,LV,2023-11-14 00:13:03
461,tweed heads,-28.1817,153.547,26.65,66,100,3.6,AU,2023-11-14 00:13:03
462,soto la marina,23.7667,-98.2167,19.77,77,100,4.71,MX,2023-11-14 00:13:03
463,chapada dos guimaraes,-15.4606,-55.7497,27.81,42,33,2.25,BR,2023-11-14 00:09:18
464,talakan,50.3167,130.3667,-11.34,87,53,0.62,RU,2023-11-14 00:12:19
465,haiku-pauwela,20.9219,-156.3051,28.43,57,20,11.32,US,2023-11-14 00:13:04
466,dakhla,23.6848,-15.958,21.2,68,65,5.29,EH,2023-11-14 00:11:05
467,kodinsk,58.6881,99.1844,0.8,98,100,3.87,RU,2023-11-14 00:08:58
468,shurugwi,-19.6702,30.0059,15.83,73,38,4.2,ZW,2023-11-14 00:13:05
469,joetsu,37.1483,138.2364,8.39,87,97,4.5,JP,2023-11-14 00:13:05
470,hirara,24.8,125.2833,21.78,65,70,7.43,JP,2023-11-14 00:13:06
471,touros,-5.1989,-35.4608,26.68,79,72,5.23,BR,2023-11-14 00:11:51
472,slyudyanka,51.6594,103.7061,-1.23,85,100,1.51,RU,2023-11-14 00:13:06
473,ajaigarh,24.9,80.2667,17.51,60,80,1.28,IN,2023-11-14 00:13:06
474,port macquarie,-31.4333,152.9167,24.38,63,2,4.9,AU,2023-11-14 00:13:07
475,revda,56.801,59.9303,2.34,96,100,5.18,RU,2023-11-14 00:13:07
476,dainava (kaunas),54.9152,23.9683,4.0,93,100,3.09,LT,2023-11-14 00:13:07
477,souillac,-20.5167,57.5167,22.21,94,75,1.54,MU,2023-11-14 00:13:08
478,znamenskoye,57.1281,73.8282,0.11,91,100,2.34,RU,2023-11-14 00:13:08
479,nioro du rip,13.75,-15.8,27.46,18,82,1.71,SN,2023-11-14 00:13:08
480,nadym,65.5333,72.5167,-17.36,98,59,3.09,RU,2023-11-14 00:13:08
481,konkwesso,10.8469,4.0984,24.17,23,10,1.33,NG,2023-11-14 00:13:09
482,victorica,-36.2151,-65.4359,15.48,42,0,5.63,AR,2023-11-14 00:13:09
483,iowa falls,42.5225,-93.2513,12.67,30,0,2.06,US,2023-11-14 00:13:06
484,tura,25.5198,90.2201,18.05,85,6,1.51,IN,2023-11-14 00:13:09
485,merizo village,13.2658,144.6691,31.31,84,56,8.43,GU,2023-11-14 00:13:09
486,selfoss,63.9331,-20.9971,3.85,69,59,7.6,IS,2023-11-14 00:13:10
487,roma,43.2128,-75.4557,5.96,71,75,3.09,US,2023-11-14 00:13:10
488,penzance,50.1186,-5.5371,13.38,86,84,13.73,GB,2023-11-14 00:13:10
489,aromashevo,56.8602,68.6375,2.52,91,99,5.47,RU,2023-11-14 00:13:10
490,tanumah,27.1,44.1333,22.49,38,6,2.76,SA,2023-11-14 00:13:11
491,tsengel,49.4783,100.8894,-8.83,75,92,1.37,MN,2023-11-14 00:13:11
492,formby,53.5536,-3.0682,12.19,82,45,9.12,GB,2023-11-14 00:13:11
493,saint-leu,-21.15,55.2833,22.75,77,44,2.43,RE,2023-11-14 00:13:11
494,suratgarh,29.3167,73.9,19.07,39,100,2.75,IN,2023-11-14 00:08:15
495,san justo,-30.7891,-60.5919,19.41,87,75,1.79,AR,2023-11-14 00:13:12
496,dhidhdhoo,6.8833,73.1,27.73,74,94,1.29,MV,2023-11-14 00:12:59
497,zhigalovo,54.8097,105.1578,-7.01,97,100,1.33,RU,2023-11-14 00:13:12
498,yanchep,-31.55,115.6833,22.01,62,0,3.49,AU,2023-11-14 00:13:13
499,novodvinsk,64.4165,40.8122,-3.45,91,98,3.12,RU,2023-11-14 00:13:13
500,nadi,-17.8,177.4167,28.64,77,100,3.38,FJ,2023-11-14 00:13:13
501,campo mourao,-24.0456,-52.3831,25.25,73,72,2.54,BR,2023-11-14 00:13:13
502,guadalupe y calvo,26.1,-106.9667,11.35,55,1,0.87,MX,2023-11-14 00:13:14
503,arkhara,49.4212,130.0842,-14.02,92,25,0.45,RU,2023-11-14 00:13:14
504,kingston,17.997,-76.7936,29.53,78,20,7.72,JM,2023-11-14 00:06:12
505,semnan,35.5729,53.3971,13.28,46,98,0.63,IR,2023-11-14 00:13:14
506,homestead meadows north,31.8496,-106.1729,16.06,61,40,3.6,US,2023-11-14 00:13:15
507,gao,16.6362,1.637,23.93,14,0,5.38,ML,2023-11-14 00:13:15
508,mallow,52.1333,-8.6333,11.57,82,75,7.3,IE,2023-11-14 00:13:15
509,vikulovo,56.8167,70.6107,1.25,93,96,4.43,RU,2023-11-14 00:13:16
510,golfito,8.639,-83.166,25.52,94,89,0.4,CR,2023-11-14 00:13:16
511,dongning,44.0622,131.1207,-6.0,80,8,2.02,CN,2023-11-14 00:13:16
512,baiti,13.745,-14.7482,27.24,16,79,2.8,SN,2023-11-14 00:13:16
513,zaozersk,69.4005,32.4476,-12.92,99,95,0.99,RU,2023-11-14 00:13:17
514,tsiombe,-25.3,45.4833,21.88,81,95,2.04,MG,2023-11-14 00:13:17
515,shimoda,34.6667,138.95,15.61,67,90,1.08,JP,2023-11-14 00:13:17
516,callao,-12.0667,-77.15,22.62,77,20,4.63,PE,2023-11-14 00:12:58
517,gamba,-2.65,10.0,25.42,87,44,2.46,GA,2023-11-14 00:13:18
518,chichiriviche,10.9333,-68.2772,27.35,86,96,7.09,VE,2023-11-14 00:13:18
519,kenai,60.5544,-151.2583,1.05,93,0,3.09,US,2023-11-14 00:13:18
520,remire-montjoly,4.9167,-52.2667,26.02,89,0,0.51,GF,2023-11-14 00:13:19
521,kingisepp,59.3733,28.6134,1.88,94,100,1.71,RU,2023-11-14 00:13:19
522,cruzilia,-21.8386,-44.8083,20.85,76,65,2.8,BR,2023-11-14 00:13:19
523,kirakira,-10.4544,161.9205,27.95,76,93,1.14,SB,2023-11-14 00:13:19
524,port isabel,26.0734,-97.2086,18.02,91,100,8.23,US,2023-11-14 00:13:20
525,qamdo,31.1667,97.2333,-6.61,58,3,1.83,CN,2023-11-14 00:13:20
526,kruisfontein,-34.0033,24.7314,11.88,90,65,2.72,ZA,2023-11-14 00:12:58
527,dalandzadgad,43.5708,104.425,-3.47,40,24,1.85,MN,2023-11-14 00:13:20
528,buka,40.8108,69.1986,7.66,39,0,0.95,UZ,2023-11-14 00:13:20
529,ndioum,16.5129,-14.6471,30.29,15,42,3.85,SN,2023-11-14 00:13:21
530,farafangana,-22.8167,47.8333,21.92,92,34,1.92,MG,2023-11-14 00:13:22
531,usogorsk,63.4106,48.6872,-0.74,94,100,3.45,RU,2023-11-14 00:13:22
532,pakuranga,-36.8833,174.9167,18.47,64,20,7.2,NZ,2023-11-14 00:13:22
533,kittila,67.6647,24.8936,-18.92,84,100,0.51,FI,2023-11-14 00:13:24
534,abu jibeha,11.4562,31.2285,29.53,34,29,2.54,SD,2023-11-14 00:13:25
535,greenville,35.6127,-77.3663,8.41,92,0,0.0,US,2023-11-14 00:05:36
536,bandar lampung,-5.4254,105.258,26.3,83,72,0.89,ID,2023-11-14 00:13:25
537,san antonio de pale,-1.4014,5.6325,26.23,81,50,3.88,GQ,2023-11-14 00:13:25
538,gumushacikoy,40.8731,35.2147,13.18,80,93,3.58,TR,2023-11-14 00:13:26
539,veselyy,47.0934,40.7422,7.52,92,100,1.83,RU,2023-11-14 00:13:26
540,hakodate,41.7758,140.7367,4.21,69,31,5.23,JP,2023-11-14 00:13:26
541,raja,8.4596,25.678,25.33,68,42,0.61,SS,2023-11-14 00:13:26
542,ubari,26.5921,12.7805,18.19,49,0,3.52,LY,2023-11-14 00:13:27
543,sao jose da coroa grande,-8.8978,-35.1478,25.44,84,68,3.77,BR,2023-11-14 00:11:28
544,guerrero negro,27.9769,-114.0611,22.46,46,61,4.98,MX,2023-11-14 00:13:27
545,santa ana,33.7456,-117.8678,25.91,43,75,3.09,US,2023-11-14 00:04:40
546,rabigh,22.7986,39.0349,28.99,65,83,3.38,SA,2023-11-14 00:13:28
547,serhetabat,35.2799,62.3438,10.38,51,60,0.49,TM,2023-11-14 00:13:28
548,markovo,57.3206,107.0881,-5.36,95,100,2.68,RU,2023-11-14 00:13:28
549,selkirk,50.1436,-96.8845,4.08,81,100,1.79,CA,2023-11-14 00:13:28
550,puerto baquerizo moreno,-0.9,-89.6,23.68,84,86,5.05,EC,2023-11-14 00:13:28
551,howard springs,-12.497,131.047,29.93,71,65,0.84,AU,2023-11-14 00:13:29
552,nieuw amsterdam,5.8833,-55.0833,28.09,83,19,3.95,SR,2023-11-14 00:13:29
553,gigant,46.5066,41.3419,9.16,82,100,4.55,RU,2023-11-14 00:13:29
554,tidjikja,18.5564,-11.4271,25.53,11,8,5.26,MR,2023-11-14 00:13:30
555,as sulayyil,20.4607,45.5779,20.14,42,40,4.0,SA,2023-11-14 00:13:30
556,verkhotur'ye,58.8627,60.8054,2.34,98,100,3.83,RU,2023-11-14 00:13:30
557,dunedin,-45.8742,170.5036,17.11,60,56,2.24,NZ,2023-11-14 00:12:27
558,pedro leopoldo,-19.6181,-44.0431,26.68,39,55,0.55,BR,2023-11-14 00:13:31
559,georgiyevka,43.0369,74.7114,-2.98,100,0,1.0,KZ,2023-11-14 00:13:31
560,reggane,26.7158,0.1714,22.74,18,3,4.88,DZ,2023-11-14 00:12:02
561,maragogi,-9.0122,-35.2225,25.41,84,59,3.67,BR,2023-11-14 00:13:32
562,uyskoye,54.3775,60.0047,3.95,80,100,7.12,RU,2023-11-14 00:13:32
563,pemangkat,1.1667,108.9667,26.16,86,91,2.75,ID,2023-11-14 00:13:32
564,gebeit,21.0667,36.3167,25.05,69,100,1.81,SD,2023-11-14 00:13:32
565,yaren,-0.5472,166.916,27.83,80,100,12.01,NR,2023-11-14 00:13:33
566,okha,53.5739,142.9478,-4.82,77,94,5.37,RU,2023-11-14 00:13:33
567,hanceville,34.0607,-86.7675,15.28,55,96,1.82,US,2023-11-14 00:13:34
568,maralal,1.0968,36.698,14.9,89,78,1.64,KE,2023-11-14 00:13:34
569,vlasim,49.7063,14.8988,12.65,73,100,8.12,CZ,2023-11-14 00:13:34
570,nikolayevsk-on-amure,53.1406,140.73,-7.41,90,97,2.72,RU,2023-11-14 00:10:13
571,surgut,61.25,73.4167,-9.9,92,75,2.0,RU,2023-11-14 00:13:24
572,kourou,5.1552,-52.6478,26.03,85,41,4.33,GF,2023-11-14 00:13:35
573,turaif,31.6725,38.6637,19.14,34,0,5.14,SA,2023-11-14 00:13:35
574,urengoy,65.9667,78.3667,-19.2,96,6,3.1,RU,2023-11-14 00:13:35
575,mana,5.6592,-53.7767,26.72,85,10,4.55,GF,2023-11-14 00:13:36
576,tame,6.461,-71.73,24.82,83,31,1.78,CO,2023-11-14 00:13:37
577,mhamid,29.82,-5.72,21.69,27,89,1.97,MA,2023-11-14 00:13:37
578,melioratorov,57.2107,65.6077,3.13,100,40,5.0,RU,2023-11-14 00:13:37
